$GPRMC,163234,A,4732.6126,N,12219.2403,W,000.0,360.0,020420,015.3,E*6E
$GPRMB,A,0.29,L,KBFI,KRNT,4729.59,N,12212.94,W,005.2,125.4,000.0,V*24
$GPRMC,163235,A,4732.6126,N,12219.2396,W,000.0,360.0,020420,015.3,E*64
$GPGGA,163235,4732.6126,N,12219.2396,W,1,04,0.9,00011.9,M,0.0,M,,*62
$GPRMB,A,0.29,L,KBFI,KRNT,4729.59,N,12212.94,W,005.2,125.4,000.0,V*24
$GPRMC,163236,A,4732.6126,N,12219.2396,W,000.0,360.0,020420,015.3,E*67
$GPGGA,163236,4732.6126,N,12219.2396,W,1,04,0.9,00011.9,M,0.0,M,,*61
$GPRMB,A,0.29,L,KBFI,KRNT,4729.59,N,12212.94,W,005.2,125.4,000.0,V*24
$GPRMC,163237,A,4732.6130,N,12219.2398,W,000.0,360.0,020420,015.3,E*6F
$GPGGA,163237,4732.6130,N,12219.2398,W,1,04,0.9,00011.9,M,0.0,M,,*69
$GPRMB,A,0.29,L,KBFI,KRNT,4729.59,N,12212.94,W,005.2,125.4,000.0,V*24
$GPRMC,163238,A,4732.6129,N,12219.2394,W,000.0,360.0,020420,015.3,E*64
$GPGGA,163238,4732.6129,N,12219.2394,W,1,04,0.9,00013.1,M,0.0,M,,*68
$GPRMB,A,0.29,L,KBFI,KRNT,4729.59,N,12212.94,W,005.2,125.4,000.0,V*24
$GPRMC,163238,A,4732.6130,N,12219.2393,W,000.0,360.0,020420,015.3,E*6B
$GPGGA,163238,4732.6130,N,12219.2393,W,1,04,0.9,00011.9,M,0.0,M,,*6D
$GPRMB,A,0.29,L,KBFI,KRNT,4729.59,N,12212.94,W,005.2,125.4,000.0,V*24
$GPRMC,163239,A,4732.6126,N,12219.2387,W,000.0,360.0,020420,015.3,E*68
$GPGGA,163239,4732.6126,N,12219.2387,W,1,04,0.9,00013.1,M,0.0,M,,*64
$GPRMB,A,0.29,L,KBFI,KRNT,4729.59,N,12212.94,W,005.2,125.4,000.0,V*24
$GPRMC,163240,A,4732.6121,N,12219.2383,W,000.0,360.0,020420,015.3,E*65
$GPGGA,163240,4732.6121,N,12219.2383,W,1,04,0.9,00011.9,M,0.0,M,,*63
$GPRMB,A,0.29,L,KBFI,KRNT,4729.59,N,12212.94,W,005.2,125.4,000.0,V*24
$GPRMC,163241,A,4732.6125,N,12219.2376,W,000.0,360.0,020420,015.3,E*6A
$GPGGA,163241,4732.6125,N,12219.2376,W,1,04,0.9,00013.1,M,0.0,M,,*66
$GPRMB,A,0.30,L,KBFI,KRNT,4729.59,N,12212.94,W,005.2,125.4,000.0,V*2C
$GPRMC,163242,A,4732.6129,N,12219.2369,W,000.0,360.0,020420,015.3,E*6B
$GPGGA,163242,4732.6129,N,12219.2369,W,1,04,0.9,00011.9,M,0.0,M,,*6D
$GPRMB,A,0.30,L,KBFI,KRNT,4729.59,N,12212.94,W,005.2,125.4,000.0,V*2C
$GPGGA,163243,4732.6133,N,12219.2370,W,1,04,0.9,00011.9,M,0.0,M,,*6F
$GPRMB,A,0.30,L,KBFI,KRNT,4729.59,N,12212.94,W,005.2,125.4,000.0,V*2C
$GPRMC,163244,A,4732.6133,N,12219.2370,W,000.0,360.0,020420,015.3,E*6E
$GPRMB,A,0.30,L,KBFI,KRNT,4729.59,N,12212.94,W,005.2,125.4,000.0,V*2C
$GPRMC,163245,A,4732.6138,N,12219.2365,W,000.0,360.0,020420,015.3,E*60
$GPRMB,A,0.30,L,KBFI,KRNT,4729.59,N,12212.94,W,005.2,125.4,000.0,V*2C
$GPRMC,163246,A,4732.6142,N,12219.2363,W,000.0,360.0,020420,015.3,E*68
$GPGGA,163246,4732.6142,N,12219.2363,W,1,04,0.9,00011.0,M,0.0,M,,*67
$GPRMB,A,0.30,L,KBFI,KRNT,4729.59,N,12212.94,W,005.2,125.4,000.0,V*2C
$GPRMC,163247,A,4732.6144,N,12219.2368,W,000.0,360.0,020420,015.3,E*64
$GPGGA,163247,4732.6144,N,12219.2368,W,1,04,0.9,00010.1,M,0.0,M,,*6B
$GPRMB,A,0.30,L,KBFI,KRNT,4729.59,N,12212.94,W,005.2,125.4,000.0,V*2C
$GPRMC,163248,A,4732.6146,N,12219.2363,W,000.0,360.0,020420,015.3,E*62
$GPGGA,163248,4732.6146,N,12219.2363,W,1,04,0.9,00010.1,M,0.0,M,,*6D
$GPRMB,A,0.30,L,KBFI,KRNT,4729.59,N,12212.94,W,005.2,125.4,000.0,V*2C
$GPRMC,163249,A,4732.6149,N,12219.2367,W,000.0,360.0,020420,015.3,E*68
$GPGGA,163249,4732.6149,N,12219.2367,W,1,04,0.9,00010.1,M,0.0,M,,*67
$GPRMB,A,0.30,L,KBFI,KRNT,4729.59,N,12212.94,W,005.2,125.4,000.0,V*2C
$GPRMC,163250,A,4732.6146,N,12219.2366,W,000.0,360.0,020420,015.3,E*6E
$GPRMB,A,0.30,L,KBFI,KRNT,4729.59,N,12212.94,W,005.2,125.4,000.0,V*2C
$GPRMC,163251,A,4732.6148,N,12219.2373,W,000.0,360.0,020420,015.3,E*65
$GPGGA,163251,4732.6148,N,12219.2373,W,1,04,0.9,00011.0,M,0.0,M,,*6A
$GPRMB,A,0.30,L,KBFI,KRNT,4729.59,N,12212.94,W,005.2,125.4,000.0,V*2C
$GPRMC,163252,A,4732.6153,N,12219.2376,W,000.0,360.0,020420,015.3,E*69
$GPGGA,163252,4732.6153,N,12219.2376,W,1,04,0.9,00011.9,M,0.0,M,,*6F
$GPRMB,A,0.30,L,KBFI,KRNT,4729.59,N,12212.94,W,005.2,125.4,000.0,V*2C
$GPRMC,163253,A,4732.6153,N,12219.2390,W,000.0,360.0,020420,015.3,E*60
$GPGGA,163253,4732.6153,N,12219.2390,W,1,04,0.9,00013.1,M,0.0,M,,*6C
$GPRMB,A,0.29,L,KBFI,KRNT,4729.59,N,12212.94,W,005.2,125.4,000.0,V*24
$GPRMC,163254,A,4732.6139,N,12219.2402,W,003.0,360.0,020420,015.3,E*64
$GPGGA,163254,4732.6139,N,12219.2402,W,1,04,0.9,00014.9,M,0.0,M,,*64
$GPRMB,A,0.29,L,KBFI,KRNT,4729.59,N,12212.94,W,005.2,125.4,000.0,V*24
$GPRMC,163255,A,4732.6136,N,12219.2403,W,000.0,360.0,020420,015.3,E*68
$GPGGA,163255,4732.6136,N,12219.2403,W,1,04,0.9,00015.8,M,0.0,M,,*6B
$GPRMB,A,0.29,L,KBFI,KRNT,4729.59,N,12212.94,W,005.2,125.4,000.0,V*24
$GPRMC,163256,A,4732.6132,N,12219.2421,W,003.0,360.0,020420,015.3,E*6C
$GPGGA,163256,4732.6132,N,12219.2421,W,1,04,0.9,00015.8,M,0.0,M,,*6C
$GPGGA,163257,4732.6131,N,12219.2419,W,1,04,0.9,00018.9,M,0.0,M,,*69
$GPRMB,A,0.29,L,KBFI,KRNT,4729.59,N,12212.94,W,005.2,125.4,000.0,V*24
$GPRMC,163258,A,4732.6127,N,12219.2424,W,000.0,360.0,020420,015.3,E*60
$GPGGA,163258,4732.6127,N,12219.2424,W,1,04,0.9,00018.0,M,0.0,M,,*66
$GPRMB,A,0.29,L,KBFI,KRNT,4729.59,N,12212.94,W,005.2,125.4,000.0,V*24
$GPRMC,163259,A,4732.6136,N,12219.2426,W,000.0,360.0,020420,015.3,E*63
$GPGGA,163259,4732.6136,N,12219.2426,W,1,04,0.9,00018.0,M,0.0,M,,*65
$GPRMB,A,0.29,L,KBFI,KRNT,4729.59,N,12212.94,W,005.2,125.4,000.0,V*24
$GPRMC,163300,A,4732.6149,N,12219.2426,W,003.0,360.0,020420,015.3,E*65
$GPGGA,163300,4732.6149,N,12219.2426,W,1,04,0.9,00018.9,M,0.0,M,,*69
$GPRMB,A,0.29,L,KBFI,KRNT,4729.59,N,12212.94,W,005.2,125.4,000.0,V*24
$GPRMC,163301,A,4732.6153,N,12219.2438,W,000.0,360.0,020420,015.3,E*63
$GPGGA,163301,4732.6153,N,12219.2438,W,1,04,0.9,00018.9,M,0.0,M,,*6C
$GPRMB,A,0.29,L,KBFI,KRNT,4729.59,N,12212.94,W,005.2,125.4,000.0,V*24
$GPRMC,163302,A,4732.6149,N,12219.2434,W,000.0,360.0,020420,015.3,E*67
$GPGGA,163302,4732.6149,N,12219.2434,W,1,04,0.9,00021.9,M,0.0,M,,*62
$GPRMB,A,0.29,L,KBFI,KRNT,4729.59,N,12212.94,W,005.2,125.4,000.0,V*24
$GPRMC,163303,A,4732.6151,N,12219.2434,W,000.0,360.0,020420,015.3,E*6F
$GPGGA,163303,4732.6151,N,12219.2434,W,1,04,0.9,00021.9,M,0.0,M,,*6A
$GPRMB,A,0.29,L,KBFI,KRNT,4729.59,N,12212.94,W,005.2,125.4,000.0,V*24
$GPRMC,163304,A,4732.6151,N,12219.2434,W,000.0,360.0,020420,015.3,E*68
$GPGGA,163304,4732.6151,N,12219.2434,W,1,04,0.9,00021.9,M,0.0,M,,*6D
$GPRMB,A,0.30,L,KBFI,KRNT,4729.59,N,12212.94,W,005.2,125.4,000.0,V*2C
$GPRMC,163305,A,4732.6156,N,12219.2436,W,000.0,360.0,020420,015.3,E*6C
$GPGGA,163305,4732.6156,N,12219.2436,W,1,04,0.9,00021.9,M,0.0,M,,*69
$GPRMC,163306,A,4732.6158,N,12219.2425,W,000.0,360.0,020420,015.3,E*63
$GPGGA,163306,4732.6158,N,12219.2425,W,1,04,0.9,00022.9,M,0.0,M,,*65
$GPRMB,A,0.30,L,KBFI,KRNT,4729.59,N,12212.94,W,005.2,125.4,000.0,V*2C
$GPRMC,163306,A,4732.6164,N,12219.2421,W,003.0,360.0,020420,015.3,E*6B
$GPGGA,163306,4732.6164,N,12219.2421,W,1,04,0.9,00022.9,M,0.0,M,,*6E
$GPRMB,A,0.30,L,KBFI,KRNT,4729.59,N,12212.94,W,005.2,125.4,000.0,V*2C
$GPRMC,163307,A,4732.6160,N,12219.2433,W,000.0,360.0,020420,015.3,E*6E
$GPGGA,163307,4732.6160,N,12219.2433,W,1,04,0.9,00024.1,M,0.0,M,,*66
$GPRMB,A,0.29,L,KBFI,KRNT,4729.59,N,12212.94,W,005.2,125.4,000.0,V*24
$GPRMC,163308,A,4732.6148,N,12219.2439,W,000.0,360.0,020420,015.3,E*61
$GPGGA,163308,4732.6148,N,12219.2439,W,1,04,0.9,00024.1,M,0.0,M,,*69
$GPRMB,A,0.29,L,KBFI,KRNT,4729.59,N,12212.94,W,005.2,125.4,000.0,V*24
$GPRMC,163309,A,4732.6149,N,12219.2448,W,000.0,360.0,020420,015.3,E*67
$GPGGA,163309,4732.6149,N,12219.2448,W,1,04,0.9,00025.0,M,0.0,M,,*6F
$GPRMC,163310,A,4732.6163,N,12219.2469,W,000.0,360.0,020420,015.3,E*64
$GPGGA,163310,4732.6163,N,12219.2469,W,1,04,0.9,00027.1,M,0.0,M,,*6F
$GPRMC,163311,A,4732.6162,N,12219.2481,W,000.0,360.0,020420,015.3,E*62
$GPGGA,163311,4732.6162,N,12219.2481,W,1,04,0.9,00031.1,M,0.0,M,,*6E
$GPRMB,A,0.29,L,KBFI,KRNT,4729.59,N,12212.94,W,005.2,125.4,000.0,V*24
$GPRMC,163312,A,4732.6162,N,12219.2495,W,000.0,360.0,020420,015.3,E*64
$GPGGA,163312,4732.6162,N,12219.2495,W,1,04,0.9,00031.1,M,0.0,M,,*68
$GPRMB,A,0.29,L,KBFI,KRNT,4729.59,N,12212.94,W,005.2,125.4,000.0,V*24
$GPRMC,163313,A,4732.6161,N,12219.2504,W,003.0,360.0,020420,015.3,E*6C
$GPGGA,163313,4732.6161,N,12219.2504,W,1,04,0.9,00029.9,M,0.0,M,,*62
$GPRMB,A,0.29,L,KBFI,KRNT,4729.59,N,12212.94,W,005.2,125.4,000.0,V*24
$GPRMC,163314,A,4732.6163,N,12219.2497,W,000.0,360.0,020420,015.3,E*61
$GPGGA,163314,4732.6163,N,12219.2497,W,1,04,0.9,00029.9,M,0.0,M,,*6C
$GPRMB,A,0.29,L,KBFI,KRNT,4729.59,N,12212.94,W,005.2,125.4,000.0,V*24
$GPRMC,163315,A,4732.6169,N,12219.2505,W,000.0,360.0,020420,015.3,E*60
$GPGGA,163315,4732.6169,N,12219.2505,W,1,04,0.9,00029.0,M,0.0,M,,*64
$GPRMB,A,0.29,L,KBFI,KRNT,4729.59,N,12212.94,W,005.2,125.4,000.0,V*24
$GPRMC,163316,A,4732.6161,N,12219.2493,W,000.0,360.0,020420,015.3,E*65
$GPGGA,163316,4732.6161,N,12219.2493,W,1,04,0.9,00029.0,M,0.0,M,,*61
