$PMRRV3417403
$GPVTG,189.7,T,,,79.5,N,147.2,K*11
$PMRRV3417403
$PMRRV3417403
$GPGGA,201145,4744.4977,N,12230.0910,W,1,04,0.9,00481.9,M,0.0,M,,*6E
$PMRRV3417403
$PMRRV3417403
$PMRRV3417403
$GPRMC,201146,A,4744.4759,N,12230.0966,W,080.0,189.0,020420,015.3,E*68
$PMRRV3417403
$GPRMC,201147,A,4744.4541,N,12230.1022,W,080.0,189.0,020420,015.3,E*6A
$PMRRV3417403
$PMRRV3417403
$PMRRV3417403
$PMRRV3417403
$GPRMC,201148,A,4744.4323,N,12230.1077,W,080.0,189.0,020420,015.3,E*67
$PMRRV3417403
$PMRRV3417403
$PMRRV3417403
$GPGLL,4744.41,N,12230.11,W,,A*3C
$GPVTG,189.8,T,,,79.9,N,148.0,K*1F
$GPGGA,201149,4744.4103,N,12230.1133,W,1,04,0.9,00484.0,M,0.0,M,,*6D
$PMRRV3417403
$PMRRV3417403
$GPRMB,A,4.97,R,WP001,8W5,4739.38,N,12243.99,W,010.6,241.8,049.0,V*5D
$PMRRV3417403
$PMRRV3417403
$PMRRV3417403
$PMRRV3417403
$GPGLL,4744.37,N,12230.13,W,,A*3F
$GPRMB,A,4.98,R,WP001,8W5,4739.38,N,12243.99,W,010.6,241.9,049.0,V*53
$GPGGA,201151,4744.3667,N,12230.1244,W,1,04,0.9,00484.9,M,0.0,M,,*6C
$PMRRV3417403
$PMRRV3417403
$PMRRV3417403
$GPGLL,4744.34,N,12230.13,W,,A*3C
$PMRRV3417403
$GPRMB,A,4.98,R,WP001,8W5,4739.38,N,12243.99,W,010.6,241.9,049.0,V*53
$PMRRV3417403
$PMRRV3417403
$GPGLL,4744.32,N,12230.14,W,,A*3D
$GPVTG,190.2,T,,,80.6,N,149.2,K*17
$PMRRV3417403
$GPRMC,201153,A,4744.3229,N,12230.1358,W,081.0,190.0,020420,015.3,E*66
$PMRRV3417403
$PMRRV3417403
$PMRRV3417403
$PMRRV3417403
$GPVTG,189.9,T,,,80.9,N,149.7,K*1E
$PMRRV3417403
$GPGGA,201154,4744.3010,N,12230.1417,W,1,04,0.9,00485.9,M,0.0,M,,*6E
$PMRRV3417403
$PMRRV3417403
$PMRRV3417403
$PMRRV3417403
$PMRRV3417403
$PMRRV3417403
$GPRMB,A,5.04,R,WP001,8W5,4739.38,N,12243.99,W,010.5,242.5,049.0,V*5B
$GPVTG,189.6,T,,,81.0,N,149.9,K*17
$GPRMC,201156,A,4744.2346,N,12230.1587,W,081.0,189.0,020420,015.3,E*66
$GPGGA,201156,4744.2346,N,12230.1587,W,1,04,0.9,00485.9,M,0.0,M,,*65
$PMRRV3417403
$PMRRV3417403
$PMRRV3417403
$PMRRV3417403
$GPGGA,201157,4744.2126,N,12230.1644,W,1,04,0.9,00485.9,M,0.0,M,,*6C
$PMRRV3417403
$GPRMB,A,5.06,R,WP001,8W5,4739.38,N,12243.99,W,010.5,242.7,049.0,V*5B
$PMRRV3417403
$GPGLL,4744.19,N,12230.17,W,,A*37
$GPVTG,189.5,T,,,81.1,N,150.2,K*16
$GPGGA,201159,4744.1907,N,12230.1701,W,1,04,0.9,00485.9,M,0.0,M,,*6A
$PMRRV3417403
$PMRRV3417403
$PMRRV3417403
$GPRMB,A,5.08,R,WP001,8W5,4739.38,N,12243.99,W,010.5,242.8,049.0,V*5A
$PMRRV3417403
$GPRMC,201200,A,4744.1686,N,12230.1757,W,081.0,189.0,020420,015.3,E*63
$PMRRV3417403
$PMRRV3417403
$PMRRV3417403
$GPRMB,A,5.09,R,WP001,8W5,4739.38,N,12243.99,W,010.4,242.9,049.0,V*5B
$PMRRV3417403
$GPGLL,4744.15,N,12230.18,W,,A*34
$GPVTG,189.1,T,,,81.4,N,150.7,K*12
$GPRMC,201200,A,4744.1463,N,12230.1812,W,081.0,189.0,020420,015.3,E*64
$GPGGA,201200,4744.1463,N,12230.1812,W,1,04,0.9,00487.1,M,0.0,M,,*6D
$PMRRV3417403
$PMRRV3417403
$PMRRV3417403
$PMRRV3417403
$GPGLL,4744.12,N,12230.19,W,,A*32
$GPVTG,189.4,T,,,81.3,N,150.6,K*11
$PMRRV3417403
$GPRMB,A,5.10,R,WP001,8W5,4739.38,N,12243.99,W,010.4,243.0,049.0,V*5B
$PMRRV3417403
$PMRRV3417403
$PMRRV3417403
$GPVTG,188.8,T,,,81.9,N,151.8,K*19
$PMRRV3417403
$GPGGA,201203,4744.1015,N,12230.1921,W,1,04,0.9,00488.0,M,0.0,M,,*64
$PMRRV3417403
$PMRRV3417403
$PMRRV3417403
$GPGGA,201204,4744.0792,N,12230.1976,W,1,04,0.9,00488.0,M,0.0,M,,*68
$PMRRV3417403
$PMRRV3417403
$PMRRV3417403
$GPRMB,A,5.14,R,WP001,8W5,4739.38,N,12243.99,W,010.4,243.4,048.0,V*5A
$PMRRV3417403
$GPVTG,189.1,T,,,82.2,N,152.3,K*11
$PMRRV3417403
$PMRRV3417403
$GPRMB,A,5.15,R,WP001,8W5,4739.38,N,12243.99,W,010.4,243.5,048.0,V*5A
$GPRMC,201206,A,4744.0114,N,12230.2139,W,083.0,189.0,020420,015.3,E*67
$PMRRV3417403
$PMRRV3417403
$GPRMB,A,5.15,R,WP001,8W5,4739.38,N,12243.99,W,010.4,243.5,048.0,V*5A
$PMRRV3417403
$PMRRV3417403
$PMRRV3417403
$GPRMB,A,5.16,R,WP001,8W5,4739.38,N,12243.99,W,010.3,243.6,048.0,V*5D
$PMRRV3417403
$GPGLL,4743.97,N,12230.23,W,,A*31
$GPVTG,189.3,T,,,83.1,N,153.8,K*1B
$GPRMC,201208,A,4743.9886,N,12230.2193,W,083.0,189.0,020420,015.3,E*65
$PMRRV3417403
$GPGGA,201208,4743.9886,N,12230.2193,W,1,04,0.9,00488.0,M,0.0,M,,*60
$PMRRV3417403
$GPRMB,A,5.18,R,WP001,8W5,4739.38,N,12243.99,W,010.3,243.7,048.0,V*52
$GPRMC,201209,A,4743.9659,N,12230.2251,W,082.0,189.0,020420,015.3,E*64
$PMRRV3417403
$GPGLL,4743.94,N,12230.23,W,,A*32
$GPVTG,190.2,T,,,82.2,N,152.2,K*1B
$GPGGA,201209,4743.9659,N,12230.2251,W,1,04,0.9,00488.0,M,0.0,M,,*60
$PMRRV3417403
$PMRRV3417403
$PMRRV3417403
$GPRMC,201210,A,4743.9435,N,12230.2311,W,082.0,190.0,020420,015.3,E*69
$GPRMB,A,5.20,R,WP001,8W5,4739.38,N,12243.99,W,010.3,243.9,048.0,V*57
$PMRRV3417403
$GPRMC,201211,A,4743.9211,N,12230.2373,W,082.0,190.0,020420,015.3,E*6C
$PMRRV3417403
$PMRRV3417403
$GPRMB,A,5.21,R,WP001,8W5,4739.38,N,12243.99,W,010.3,244.0,048.0,V*58
$GPGGA,201212,4743.8990,N,12230.2438,W,1,04,0.9,00490.1,M,0.0,M,,*60
$PMRRV3417403
$GPGLL,4743.88,N,12230.25,W,,A*39
$GPVTG,192.3,T,,,81.8,N,151.6,K*16
$PMRRV3417403
$GPRMC,201213,A,4743.8767,N,12230.2507,W,082.0,191.0,020420,015.3,E*6F
$PMRRV3417403
$GPGGA,201213,4743.8767,N,12230.2507,W,1,04,0.9,00490.1,M,0.0,M,,*6A
$PMRRV3417403
$GPVTG,192.8,T,,,82.0,N,151.9,K*19
$PMRRV3417403
$PMRRV3417403
$PMRRV3417403
$GPRMB,A,5.23,R,WP001,8W5,4739.38,N,12243.99,W,010.3,244.3,048.0,V*59
$GPGGA,201214,4743.8545,N,12230.2579,W,1,04,0.9,00491.0,M,0.0,M,,*66
$PMRRV3417403
$GPGLL,4743.83,N,12230.27,W,,A*30
$GPVTG,193.4,T,,,81.6,N,151.2,K*1A
$PMRRV3417403
$GPRMC,201215,A,4743.8324,N,12230.2654,W,082.0,193.0,020420,015.3,E*6D
$PMRRV3417403
$PMRRV3417403
$PMRRV3417403
$GPRMC,201216,A,4743.8103,N,12230.2732,W,082.0,193.0,020420,015.3,E*68
$PMRRV3417403
$GPGGA,201216,4743.8103,N,12230.2732,W,1,04,0.9,00491.9,M,0.0,M,,*66
$PMRRV3417403
$PMRRV3417403
$GPRMB,A,5.26,R,WP001,8W5,4739.38,N,12243.99,W,010.2,244.5,049.0,V*5A
$GPRMC,201217,A,4743.7883,N,12230.2809,W,081.0,193.0,020420,015.3,E*63
$PMRRV3417403
$GPGGA,201217,4743.7883,N,12230.2809,W,1,04,0.9,00491.0,M,0.0,M,,*67
$PMRRV3417403
$PMRRV3417403
$GPVTG,193.0,T,,,81.8,N,151.4,K*16
$PMRRV3417403
$PMRRV3417403
$GPGLL,4743.74,N,12230.30,W,,A*3E
$PMRRV3417403
$GPRMB,A,5.28,R,WP001,8W5,4739.38,N,12243.99,W,010.2,244.7,050.0,V*5E
$PMRRV3417403
$PMRRV3417403
$PMRRV3417403
$GPGLL,4743.72,N,12230.30,W,,A*38
$GPVTG,190.4,T,,,81.7,N,151.3,K*19
$PMRRV3417403
$PMRRV3417403
$GPRMB,A,5.29,R,WP001,8W5,4739.38,N,12243.99,W,010.2,244.8,050.0,V*50
$PMRRV3417403
$PMRRV3417403
$GPRMB,A,5.30,R,WP001,8W5,4739.38,N,12243.99,W,010.2,244.9,049.0,V*51
$GPGGA,201221,4743.6993,N,12230.3068,W,1,04,0.9,00488.9,M,0.0,M,,*6C
$PMRRV3417403
$PMRRV3417403
$PMRRV3417403
$PMRRV3417403
$GPRMB,A,5.31,R,WP001,8W5,4739.38,N,12243.99,W,010.2,245.1,048.0,V*58
$PMRRV3417403
$GPGGA,201222,4743.6764,N,12230.3098,W,1,04,0.9,00488.0,M,0.0,M,,*6F
$PMRRV3417403
$PMRRV3417403
$GPGLL,4743.65,N,12230.32,W,,A*3C
$GPVTG,183.6,T,,,81.5,N,150.9,K*10
$PMRRV3417403
$GPRMB,A,5.32,R,WP001,8W5,4739.38,N,12243.99,W,010.1,245.2,046.0,V*55
$PMRRV3417403
$GPRMC,201223,A,4743.6528,N,12230.3112,W,085.0,181.0,020420,015.3,E*6C
$PMRRV3417403
$GPRMC,201224,A,4743.6292,N,12230.3115,W,085.0,180.0,020420,015.3,E*6B
$PMRRV3417403
$GPGGA,201224,4743.6292,N,12230.3115,W,1,04,0.9,00481.0,M,0.0,M,,*68
$PMRRV3417403
$PMRRV3417403
$GPVTG,180.5,T,,,85.9,N,159.1,K*19
$GPRMC,201225,A,4743.6055,N,12230.3117,W,085.0,180.0,020420,015.3,E*61
$PMRRV3417403
$GPGGA,201225,4743.6055,N,12230.3117,W,1,04,0.9,00479.1,M,0.0,M,,*64
$PMRRV3417403
$PMRRV3417403
$PMRRV3417403
$GPGGA,201226,4743.5815,N,12230.3124,W,1,04,0.9,00477.0,M,0.0,M,,*67
$PMRRV3417403
$PMRRV3417403
$GPVTG,182.3,T,,,85.6,N,158.5,K*17
$GPRMB,A,5.38,R,WP001,8W5,4739.38,N,12243.99,W,010.1,245.6,040.0,V*5D
$PMRRV3417403
$GPRMC,201227,A,4743.5574,N,12230.3137,W,086.0,182.0,020420,015.3,E*65
$GPGGA,201227,4743.5574,N,12230.3137,W,1,04,0.9,00476.1,M,0.0,M,,*6E
$PMRRV3417403
$PMRRV3417403
$GPVTG,182.0,T,,,85.4,N,158.2,K*11
$PMRRV3417403
$PMRRV3417403
$PMRRV3417403
$GPRMC,201228,A,4743.5336,N,12230.3151,W,086.0,182.0,020420,015.3,E*6A
$GPRMC,201229,A,4743.5100,N,12230.3163,W,085.0,181.0,020420,015.3,E*6D
$PMRRV3417403
$GPGGA,201229,4743.5100,N,12230.3163,W,1,04,0.9,00476.1,M,0.0,M,,*66
$PMRRV3417403
$GPVTG,179.7,T,,,82.8,N,153.3,K*13
$PMRRV3417403
$GPRMB,A,5.43,R,WP001,8W5,4739.38,N,12243.99,W,010.1,246.0,036.0,V*55
$GPGGA,201230,4743.4870,N,12230.3165,W,1,04,0.9,00476.1,M,0.0,M,,*67
$PMRRV3417403
$GPVTG,178.2,T,,,82.8,N,153.3,K*17
$PMRRV3417403
$PMRRV3417403
$GPRMB,A,5.44,R,WP001,8W5,4739.38,N,12243.99,W,010.1,246.1,036.0,V*53
$PMRRV3417403
$GPRMC,201231,A,4743.4639,N,12230.3159,W,084.0,178.0,020420,015.3,E*66
$GPGGA,201231,4743.4639,N,12230.3159,W,1,04,0.9,00477.9,M,0.0,M,,*63
$PMRRV3417403
$PMRRV3417403
$PMRRV3417403
$GPRMB,A,5.46,R,WP001,8W5,4739.38,N,12243.99,W,010.1,246.3,035.0,V*50
$GPGGA,201232,4743.4408,N,12230.3144,W,1,04,0.9,00479.1,M,0.0,M,,*6A
$PMRRV3417403
$GPRMB,A,5.47,R,WP001,8W5,4739.38,N,12243.99,W,010.1,246.4,034.0,V*57
$PMRRV3417403
$PMRRV3417403
$GPGGA,201233,4743.4178,N,12230.3117,W,1,04,0.9,00480.1,M,0.0,M,,*69
$PMRRV3417403
$PMRRV3417403
$GPVTG,174.4,T,,,82.6,N,153.0,K*10
$PMRRV3417403
$GPRMC,201234,A,4743.3948,N,12230.3083,W,083.0,174.0,020420,015.3,E*60
$PMRRV3417403
$PMRRV3417403
$GPGLL,4743.37,N,12230.31,W,,A*38
$PMRRV3417403
$GPRMB,A,5.51,R,WP001,8W5,4739.38,N,12243.99,W,010.0,246.6,032.0,V*55
$PMRRV3417403
$PMRRV3417403
$GPVTG,176.1,T,,,81.3,N,150.6,K*14
$PMRRV3417403
$GPRMB,A,5.52,R,WP001,8W5,4739.38,N,12243.99,W,010.0,246.8,031.0,V*5B
$GPRMC,201236,A,4743.3493,N,12230.3025,W,082.0,175.0,020420,015.3,E*65
$PMRRV3417403
$PMRRV3417403
$PMRRV3417403
$GPVTG,176.9,T,,,81.2,N,150.4,K*1F
$PMRRV3417403
$PMRRV3417403
$PMRRV3417403
$PMRRV3417403
$GPRMC,201238,A,4743.3266,N,12230.3003,W,082.0,176.0,020420,015.3,E*60
$GPRMB,A,5.55,R,WP001,8W5,4739.38,N,12243.99,W,010.0,247.0,028.0,V*5D
$GPRMC,201238,A,4743.3043,N,12230.2986,W,081.0,177.0,020420,015.3,E*62
$GPGGA,201238,4743.3043,N,12230.2986,W,1,04,0.9,00477.9,M,0.0,M,,*6D
$PMRRV3417403
$GPVTG,178.4,T,,,80.4,N,148.9,K*1F
$PMRRV3417403
$GPRMC,201239,A,4743.2818,N,12230.2974,W,081.0,178.0,020420,015.3,E*66
$PMRRV3417403
$GPGGA,201239,4743.2818,N,12230.2974,W,1,04,0.9,00477.9,M,0.0,M,,*66
$PMRRV3417403
$PMRRV3417403
$GPRMB,A,5.58,R,WP001,8W5,4739.38,N,12243.99,W,010.0,247.3,027.0,V*5C
$GPGGA,201240,4743.2596,N,12230.2967,W,1,04,0.9,00477.9,M,0.0,M,,*61
$PMRRV3417403
$PMRRV3417403
$GPRMC,201241,A,4743.2374,N,12230.2960,W,080.0,178.0,020420,015.3,E*6C
$GPGGA,201241,4743.2374,N,12230.2960,W,1,04,0.9,00477.9,M,0.0,M,,*6D
$PMRRV3417403
$PMRRV3417403
$PMRRV3417403
$GPGGA,201242,4743.2151,N,12230.2952,W,1,04,0.9,00477.9,M,0.0,M,,*6A
$PMRRV3417403
$GPGLL,4743.19,N,12230.30,W,,A*35
$GPRMB,A,5.63,R,WP001,8W5,4739.38,N,12243.99,W,010.0,247.6,027.0,V*51
$PMRRV3417403
$GPRMC,201243,A,4743.1927,N,12230.2945,W,080.0,178.0,020420,015.3,E*66
$PMRRV3417403
$PMRRV3417403
$GPGLL,4743.17,N,12230.30,W,,A*3B
$GPVTG,180.1,T,,,79.9,N,147.9,K*19
$PMRRV3417403
$PMRRV3417403
$GPRMB,A,5.64,R,WP001,8W5,4739.38,N,12243.99,W,010.0,247.7,028.0,V*58
$GPRMC,201244,A,4743.1706,N,12230.2943,W,080.0,179.0,020420,015.3,E*6B
$PMRRV3417403
$PMRRV3417403
$PMRRV3417403
$GPRMC,201245,A,4743.1483,N,12230.2944,W,081.0,180.0,020420,015.3,E*64
$PMRRV3417403
$PMRRV3417403
$PMRRV3417403
$PMRRV3417403
$PMRRV3417403
$GPRMB,A,5.67,R,WP001,8W5,4739.38,N,12243.99,W,009.9,247.9,029.0,V*55
$PMRRV3417403
$GPRMC,201247,A,4743.1260,N,12230.2951,W,080.0,181.0,020420,015.3,E*69
$GPGGA,201247,4743.1260,N,12230.2951,W,1,04,0.9,00477.9,M,0.0,M,,*6E
$GPRMC,201248,A,4743.1040,N,12230.2967,W,080.0,183.0,020420,015.3,E*61
$PMRRV3417403
$PMRRV3417403
$PMRRV3417403
$PMRRV3417403
$GPGGA,201249,4743.0598,N,12230.3021,W,1,04,0.9,00479.1,M,0.0,M,,*68
$PMRRV3417403
$PMRRV3417403
$PMRRV3417403
$GPVTG,186.8,T,,,78.8,N,145.9,K*14
$GPRMC,201250,A,4743.0381,N,12230.3056,W,079.0,186.0,020420,015.3,E*6E
$PMRRV3417403
$GPGGA,201250,4743.0381,N,12230.3056,W,1,04,0.9,00480.1,M,0.0,M,,*68
$PMRRV3417403
$PMRRV3417403
$GPGLL,4743.01,N,12230.31,W,,A*3D
$PMRRV3417403
$PMRRV3417403
$PMRRV3417403
$GPGLL,4742.99,N,12230.32,W,,A*3E
$GPVTG,188.2,T,,,78.0,N,144.5,K*15
$GPRMB,A,5.74,R,WP001,8W5,4739.38,N,12243.99,W,009.9,248.6,034.0,V*5B
$GPRMC,201252,A,4742.9948,N,12230.3137,W,078.0,187.0,020420,015.3,E*6D
$GPGGA,201252,4742.9948,N,12230.3137,W,1,04,0.9,00481.9,M,0.0,M,,*62
$PMRRV3417403
$GPRMB,A,5.75,R,WP001,8W5,4739.38,N,12243.99,W,009.9,248.8,035.0,V*55
$PMRRV3417403
$GPGLL,4742.97,N,12230.32,W,,A*30
$GPVTG,188.7,T,,,77.9,N,144.3,K*10
$GPRMC,201252,A,4742.9735,N,12230.3184,W,078.0,188.0,020420,015.3,E*6E
$PMRRV3417403
$PMRRV3417403
$PMRRV3417403
$PMRRV3417403
$PMRRV3417403
$GPVTG,189.0,T,,,77.7,N,143.8,K*14
$GPRMB,A,5.76,R,WP001,8W5,4739.38,N,12243.99,W,009.9,248.8,036.0,V*55
$PMRRV3417403
$GPGGA,201254,4742.9521,N,12230.3233,W,1,04,0.9,00484.0,M,0.0,M,,*6C
$PMRRV3417403
$PMRRV3417403
$PMRRV3417403
$PMRRV3417403
$PMRRV3417403
$GPVTG,190.0,T,,,77.2,N,142.9,K*19
$PMRRV3417403
$GPRMC,201256,A,4742.9099,N,12230.3339,W,077.0,189.0,020420,015.3,E*61
$GPGGA,201256,4742.9099,N,12230.3339,W,1,04,0.9,00485.9,M,0.0,M,,*6B
$PMRRV3417403
$PMRRV3417403
$GPVTG,190.3,T,,,76.7,N,142.0,K*17
$PMRRV3417403
$PMRRV3417403
$GPGGA,201258,4742.8682,N,12230.3451,W,1,04,0.9,00487.1,M,0.0,M,,*6B
$PMRRV3417403
$GPRMB,A,5.81,R,WP001,8W5,4739.38,N,12243.99,W,009.8,249.4,038.0,V*5F
$PMRRV3417403
$PMRRV3417403
$PMRRV3417403
$GPRMB,A,5.82,R,WP001,8W5,4739.38,N,12243.99,W,009.8,249.5,038.0,V*5D
$PMRRV3417403
$PMRRV3417403
$PMRRV3417403
$PMRRV3417403
$PMRRV3417403
$GPGLL,4742.80,N,12230.36,W,,A*32
$GPVTG,191.5,T,,,76.7,N,142.1,K*11
$GPRMB,A,5.83,R,WP001,8W5,4739.38,N,12243.99,W,009.8,249.6,039.0,V*5E
$PMRRV3417403
$GPRMC,201300,A,4742.8056,N,12230.3629,W,077.0,191.0,020420,015.3,E*6C
$GPGGA,201300,4742.8056,N,12230.3629,W,1,04,0.9,00488.0,M,0.0,M,,*6B
$PMRRV3417403
$PMRRV3417403
$GPVTG,191.5,T,,,77.5,N,143.5,K*17
$PMRRV3417403
$PMRRV3417403
$PMRRV3417403
$PMRRV3417403
$PMRRV3417403
$PMRRV3417403
$GPGGA,201304,4742.7638,N,12230.3756,W,1,04,0.9,00487.1,M,0.0,M,,*69
$PMRRV3417403
$PMRRV3417403
$GPGLL,4742.72,N,12230.39,W,,A*30
$GPVTG,192.0,T,,,77.8,N,144.0,K*1E
$PMRRV3417403
$PMRRV3417403
$PMRRV3417403
$PMRRV3417403
$GPGLL,4742.70,N,12230.40,W,,A*3C
$GPVTG,192.0,T,,,77.8,N,144.1,K*1F
$GPRMB,A,5.88,R,WP001,8W5,4739.38,N,12243.99,W,009.7,250.1,040.0,V*5B
$PMRRV3417403
$PMRRV3417403
$PMRRV3417403
$PMRRV3417403
$GPGGA,201307,4742.6800,N,12230.4016,W,1,04,0.9,00483.1,M,0.0,M,,*6E
$PMRRV3417403
$PMRRV3417403
$GPVTG,191.4,T,,,78.3,N,145.1,K*1D
$PMRRV3417403
$PMRRV3417403
$PMRRV3417403
$GPGLL,4742.63,N,12230.42,W,,A*3C
$GPVTG,190.4,T,,,78.6,N,145.5,K*1D
$GPRMB,A,5.91,R,WP001,8W5,4739.38,N,12243.99,W,009.7,250.4,040.0,V*56
$PMRRV3417403
$PMRRV3417403
$PMRRV3417403
$GPGLL,4742.61,N,12230.42,W,,A*3E
$GPVTG,189.6,T,,,79.3,N,146.8,K*1D
$GPRMB,A,5.92,R,WP001,8W5,4739.38,N,12243.99,W,009.7,250.6,040.0,V*57
$PMRRV3417403
$GPGGA,201310,4742.6160,N,12230.4199,W,1,04,0.9,00479.1,M,0.0,M,,*64
$PMRRV3417403
$PMRRV3417403
$PMRRV3417403
$GPRMB,A,5.93,R,WP001,8W5,4739.38,N,12243.99,W,009.7,250.7,039.0,V*59
$PMRRV3417403
$PMRRV3417403
$GPRMB,A,5.94,R,WP001,8W5,4739.38,N,12243.99,W,009.7,250.8,039.0,V*51
$PMRRV3417403
$PMRRV3417403
$PMRRV3417403
$PMRRV3417403
$PMRRV3417403
$PMRRV3417403
$GPGLL,4742.52,N,12230.44,W,,A*38
$GPVTG,189.6,T,,,81.0,N,150.0,K*16
$PMRRV3417403
$GPRMB,A,5.94,R,WP001,8W5,4739.38,N,12243.99,W,009.7,250.8,039.0,V*51
$PMRRV3417403
$GPRMC,201314,A,4742.5721,N,12230.4306,W,080.0,189.0,020420,015.3,E*6D
$GPRMC,201314,A,4742.5499,N,12230.4362,W,081.0,189.0,020420,015.3,E*6E
$PMRRV3417403
$GPGLL,4742.50,N,12230.45,W,,A*3B
$GPVTG,189.1,T,,,80.7,N,149.5,K*1A
$GPGGA,201314,4742.5499,N,12230.4362,W,1,04,0.9,00474.0,M,0.0,M,,*6A
$PMRRV3417403
$GPRMB,A,5.98,R,WP001,8W5,4739.38,N,12243.99,W,009.6,251.1,038.0,V*55
$GPRMC,201315,A,4742.5056,N,12230.4474,W,081.0,189.0,020420,015.3,E*68
$PMRRV3417403
$PMRRV3417403
$GPRMB,A,5.99,R,WP001,8W5,4739.38,N,12243.99,W,009.6,251.3,038.0,V*56
$PMRRV3417403
$GPGGA,201316,4742.4832,N,12230.4529,W,1,04,0.9,00470.0,M,0.0,M,,*69
$PMRRV3417403
$PMRRV3417403
$GPRMB,A,6.00,R,WP001,8W5,4739.38,N,12243.99,W,009.6,251.4,038.0,V*52
$GPRMC,201317,A,4742.4609,N,12230.4581,W,082.0,188.0,020420,015.3,E*6E
$GPGGA,201317,4742.4609,N,12230.4581,W,1,04,0.9,00470.0,M,0.0,M,,*6C
$PMRRV3417403
$GPVTG,189.0,T,,,81.6,N,151.2,K*15
$GPRMC,201318,A,4742.4383,N,12230.4633,W,082.0,188.0,020420,015.3,E*6C
$PMRRV3417403
$GPGGA,201318,4742.4383,N,12230.4633,W,1,04,0.9,00469.1,M,0.0,M,,*67
$PMRRV3417403
$GPVTG,189.2,T,,,82.2,N,152.2,K*13
$PMRRV3417403
$GPRMC,201319,A,4742.4158,N,12230.4687,W,082.0,189.0,020420,015.3,E*67
$PMRRV3417403
$GPVTG,190.0,T,,,82.0,N,151.8,K*12
$PMRRV3417403
$GPRMC,201320,A,4742.3934,N,12230.4746,W,082.0,190.0,020420,015.3,E*6C
$GPGGA,201320,4742.3934,N,12230.4746,W,1,04,0.9,00467.9,M,0.0,M,,*68
$PMRRV3417403
$PMRRV3417403
$GPRMB,A,6.04,R,WP001,8W5,4739.38,N,12243.99,W,009.6,251.9,038.0,V*5B
$PMRRV3417403
$GPRMC,201321,A,4742.3710,N,12230.4808,W,082.0,190.0,020420,015.3,E*60
$GPGGA,201321,4742.3710,N,12230.4808,W,1,04,0.9,00467.9,M,0.0,M,,*64
$PMRRV3417403
$GPGLL,4742.35,N,12230.49,W,,A*34
$GPVTG,190.5,T,,,81.8,N,151.6,K*12
$PMRRV3417403
$GPRMB,A,6.05,R,WP001,8W5,4739.38,N,12243.99,W,009.6,252.0,038.0,V*50
$PMRRV3417403
$GPRMC,201322,A,4742.3486,N,12230.4871,W,082.0,190.0,020420,015.3,E*61
$GPGGA,201322,4742.3486,N,12230.4871,W,1,04,0.9,00467.9,M,0.0,M,,*65
$PMRRV3417403
$PMRRV3417403
$GPVTG,190.6,T,,,81.1,N,150.1,K*1E
$PMRRV3417403
$GPRMB,A,6.06,R,WP001,8W5,4739.38,N,12243.99,W,009.5,252.1,038.0,V*51
$GPGGA,201323,4742.3265,N,12230.4935,W,1,04,0.9,00467.0,M,0.0,M,,*67
$PMRRV3417403
$PMRRV3417403
$GPRMB,A,6.07,R,WP001,8W5,4739.38,N,12243.99,W,009.5,252.2,038.0,V*53
$PMRRV3417403
$GPGGA,201324,4742.3046,N,12230.5000,W,1,04,0.9,00467.0,M,0.0,M,,*6D
$PMRRV3417403
$PMRRV3417403
$PMRRV3417403
$GPRMC,201325,A,4742.2829,N,12230.5065,W,079.0,191.0,020420,015.3,E*67
$PMRRV3417403
$PMRRV3417403
$GPVTG,190.8,T,,,80.4,N,148.9,K*15
$PMRRV3417403
$GPRMB,A,6.09,R,WP001,8W5,4739.38,N,12243.99,W,009.5,252.4,038.0,V*5B
$PMRRV3417403
$PMRRV3417403
$GPGLL,4742.24,N,12230.52,W,,A*3E
$GPVTG,191.2,T,,,80.5,N,149.1,K*16
$PMRRV3417403
$GPRMB,A,6.10,R,WP001,8W5,4739.38,N,12243.99,W,009.5,252.6,039.0,V*50
$PMRRV3417403
$GPGGA,201327,4742.2393,N,12230.5195,W,1,04,0.9,00469.1,M,0.0,M,,*66
$PMRRV3417403
$PMRRV3417403
$PMRRV3417403
$GPVTG,191.3,T,,,81.0,N,150.0,K*1A
$GPRMC,201328,A,4742.2175,N,12230.5263,W,080.0,191.0,020420,015.3,E*68
$PMRRV3417403
$PMRRV3417403
$PMRRV3417403
$GPGGA,201329,4742.1957,N,12230.5331,W,1,04,0.9,00470.0,M,0.0,M,,*6C
$PMRRV3417403
$PMRRV3417403
$PMRRV3417403
$PMRRV3417403
$GPRMB,A,6.14,R,WP001,8W5,4739.38,N,12243.99,W,009.5,253.0,038.0,V*52
$PMRRV3417403
$GPVTG,190.9,T,,,79.6,N,147.3,K*15
$PMRRV3417403
$PMRRV3417403
$PMRRV3417403
$PMRRV3417403
$GPRMB,A,6.15,R,WP001,8W5,4739.38,N,12243.99,W,009.5,253.1,038.0,V*52
$GPGGA,201332,4742.1302,N,12230.5523,W,1,04,0.9,00472.1,M,0.0,M,,*6A
$PMRRV3417403
$GPVTG,189.9,T,,,78.9,N,146.1,K*10
$GPRMC,201333,A,4742.1085,N,12230.5581,W,079.0,190.0,020420,015.3,E*63
$PMRRV3417403
$GPGGA,201333,4742.1085,N,12230.5581,W,1,04,0.9,00472.1,M,0.0,M,,*6F
$PMRRV3417403
$PMRRV3417403
$PMRRV3417403
$PMRRV3417403
$PMRRV3417403
$PMRRV3417403
$GPGLL,4742.06,N,12230.57,W,,A*3B
$GPVTG,191.0,T,,,77.8,N,144.1,K*1C
$GPRMB,A,6.18,R,WP001,8W5,4739.38,N,12243.99,W,009.4,253.5,037.0,V*55
$PMRRV3417403
$GPRMC,201335,A,4742.0655,N,12230.5696,W,079.0,190.0,020420,015.3,E*6A
$GPGGA,201335,4742.0655,N,12230.5696,W,1,04,0.9,00472.1,M,0.0,M,,*66
$PMRRV3417403
$PMRRV3417403
$GPGLL,4742.04,N,12230.58,W,,A*36
$GPVTG,191.5,T,,,78.0,N,144.5,K*1A
$GPRMB,A,6.19,R,WP001,8W5,4739.38,N,12243.99,W,009.4,253.6,037.0,V*57
$PMRRV3417403
$GPRMC,201336,A,4742.0443,N,12230.5758,W,078.0,191.0,020420,015.3,E*6F
$GPGGA,201336,4742.0443,N,12230.5758,W,1,04,0.9,00472.1,M,0.0,M,,*63
$PMRRV3417403
$PMRRV3417403
$PMRRV3417403
$PMRRV3417403
$GPRMB,A,6.20,R,WP001,8W5,4739.38,N,12243.99,W,009.4,253.8,036.0,V*52
$GPGGA,201337,4742.0230,N,12230.5823,W,1,04,0.9,00472.1,M,0.0,M,,*63
$PMRRV3417403
$PMRRV3417403
$PMRRV3417403
$GPVTG,192.1,T,,,77.6,N,143.8,K*1E
$PMRRV3417403
$GPGGA,201338,4742.0018,N,12230.5889,W,1,04,0.9,00473.0,M,0.0,M,,*64
$PMRRV3417403
$PMRRV3417403
$PMRRV3417403
$PMRRV3417403
$GPGGA,201339,4741.9808,N,12230.5958,W,1,04,0.9,00472.1,M,0.0,M,,*6B
$PMRRV3417403
$PMRRV3417403
$GPRMB,A,6.23,R,WP001,8W5,4739.38,N,12243.99,W,009.4,254.1,036.0,V*5F
$PMRRV3417403
$GPGLL,4741.96,N,12230.60,W,,A*35
$GPVTG,193.2,T,,,77.1,N,142.9,K*1B
$GPRMC,201340,A,4741.9600,N,12230.6028,W,077.0,192.0,020420,015.3,E*6E
$GPGGA,201340,4741.9600,N,12230.6028,W,1,04,0.9,00472.1,M,0.0,M,,*6E
$PMRRV3417403
$PMRRV3417403
$GPRMB,A,6.24,R,WP001,8W5,4739.38,N,12243.99,W,009.4,254.2,036.0,V*5B
$PMRRV3417403
$PMRRV3417403
$GPGGA,201341,4741.9393,N,12230.6100,W,1,04,0.9,00472.1,M,0.0,M,,*6B
$PMRRV3417403
$PMRRV3417403
$GPGGA,201342,4741.9393,N,12230.6100,W,1,04,0.9,00472.1,M,0.0,M,,*68
$PMRRV3417403
$GPRMB,A,6.25,R,WP001,8W5,4739.38,N,12243.99,W,009.3,254.4,036.0,V*5B
$GPGLL,4741.90,N,12230.63,W,,A*30
$GPGGA,201343,4741.8979,N,12230.6245,W,1,04,0.9,00472.1,M,0.0,M,,*64
$PMRRV3417403
$PMRRV3417403
$GPVTG,193.4,T,,,77.2,N,143.0,K*16
$GPRMB,A,6.26,R,WP001,8W5,4739.38,N,12243.99,W,009.3,254.6,036.0,V*5A
$GPRMC,201344,A,4741.8772,N,12230.6317,W,077.0,193.0,020420,015.3,E*61
$PMRRV3417403
$GPGGA,201344,4741.8772,N,12230.6317,W,1,04,0.9,00470.9,M,0.0,M,,*6A
$PMRRV3417403
$PMRRV3417403
$GPGGA,201345,4741.8562,N,12230.6393,W,1,04,0.9,00470.9,M,0.0,M,,*64
$PMRRV3417403
$GPRMB,A,6.28,R,WP001,8W5,4739.38,N,12243.99,W,009.3,254.8,037.0,V*5B
$PMRRV3417403
$PMRRV3417403
$GPRMB,A,6.29,R,WP001,8W5,4739.38,N,12243.99,W,009.3,254.9,037.0,V*5B
$PMRRV3417403
$PMRRV3417403
$GPRMB,A,6.29,R,WP001,8W5,4739.38,N,12243.99,W,009.3,254.9,038.0,V*54
$PMRRV3417403
$GPGLL,4741.79,N,12230.67,W,,A*33
$GPVTG,204.0,T,,,80.0,N,148.1,K*1F
$GPRMC,201347,A,4741.7949,N,12230.6713,W,078.0,204.0,020420,015.3,E*69
$GPGGA,201347,4741.7949,N,12230.6713,W,1,04,0.9,00469.1,M,0.0,M,,*60
$PMRRV3417403
$GPRMB,A,6.29,R,WP001,8W5,4739.38,N,12243.99,W,009.3,255.0,040.0,V*53
$PMRRV3417403
$GPGLL,4741.77,N,12230.69,W,,A*33
$GPVTG,209.2,T,,,79.0,N,146.3,K*1A
$PMRRV3417403
$GPGGA,201348,4741.7757,N,12230.6863,W,1,04,0.9,00467.9,M,0.0,M,,*60
$PMRRV3417403
$GPRMB,A,6.30,R,WP001,8W5,4739.38,N,12243.99,W,009.3,255.1,041.0,V*5B
$GPRMC,201349,A,4741.7757,N,12230.6863,W,078.0,209.0,020420,015.3,E*63
$PMRRV3417403
$PMRRV3417403
$PMRRV3417403
$GPRMC,201350,A,4741.7579,N,12230.7039,W,078.0,215.0,020420,015.3,E*6E
$PMRRV3417403
$PMRRV3417403
$PMRRV3417403
$GPRMB,A,6.29,R,WP001,8W5,4739.38,N,12243.99,W,009.2,255.3,049.0,V*58
$GPRMC,201351,A,4741.7415,N,12230.7247,W,079.0,222.0,020420,015.3,E*6A
$PMRRV3417403
$GPGLL,4741.72,N,12230.75,W,,A*3B
$GPVTG,229.5,T,,,79.6,N,147.5,K*1E
$GPGGA,201351,4741.7415,N,12230.7247,W,1,04,0.9,00469.1,M,0.0,M,,*66
$PMRRV3417403
$GPRMB,A,6.29,R,WP001,8W5,4739.38,N,12243.99,W,009.2,255.3,052.0,V*52
$PMRRV3417403
$GPRMC,201352,A,4741.7259,N,12230.7486,W,082.0,227.0,020420,015.3,E*6D
$GPGGA,201352,4741.7259,N,12230.7486,W,1,04,0.9,00470.0,M,0.0,M,,*69
$PMRRV3417403
$PMRRV3417403
$PMRRV3417403
$GPRMB,A,6.28,R,WP001,8W5,4739.38,N,12243.99,W,009.2,255.4,056.0,V*50
$GPRMC,201353,A,4741.7127,N,12230.7740,W,080.0,232.0,020420,015.3,E*69
$GPGGA,201353,4741.7127,N,12230.7740,W,1,04,0.9,00470.9,M,0.0,M,,*62
$PMRRV3417403
$PMRRV3417403
$GPRMC,201354,A,4741.7023,N,12230.8018,W,079.0,240.0,020420,015.3,E*6D
$PMRRV3417403
$GPGGA,201354,4741.7023,N,12230.8018,W,1,04,0.9,00472.1,M,0.0,M,,*6F
$PMRRV3417403
$PMRRV3417403
$PMRRV3417403
$GPRMB,A,6.26,R,WP001,8W5,4739.38,N,12243.99,W,009.2,255.4,066.0,V*5D
$PMRRV3417403
$GPRMC,201355,A,4741.6944,N,12230.8316,W,079.0,247.0,020420,015.3,E*6F
$GPGGA,201355,4741.6944,N,12230.8316,W,1,04,0.9,00473.0,M,0.0,M,,*6A
$PMRRV3417403
$PMRRV3417403
$GPVTG,247.3,T,,,78.8,N,145.9,K*11
$PMRRV3417403
$PMRRV3417403
$PMRRV3417403
$GPGGA,201356,4741.6871,N,12230.8617,W,1,04,0.9,00474.0,M,0.0,M,,*6D
$PMRRV3417403
$GPGLL,4741.68,N,12230.90,W,,A*3B
$GPVTG,249.7,T,,,77.9,N,144.2,K*1F
$PMRRV3417403
$PMRRV3417403
$GPRMB,A,6.22,R,WP001,8W5,4739.38,N,12243.99,W,009.1,255.4,075.0,V*58
$GPRMC,201358,A,4741.6735,N,12230.9212,W,076.0,250.0,020420,015.3,E*67
$PMRRV3417403
$GPGGA,201358,4741.6735,N,12230.9212,W,1,04,0.9,00480.1,M,0.0,M,,*66
$PMRRV3417403
$GPRMB,A,6.21,R,WP001,8W5,4739.38,N,12243.99,W,009.1,255.4,076.0,V*58
$PMRRV3417403
$GPRMC,201359,A,4741.6666,N,12230.9502,W,076.0,251.0,020420,015.3,E*66
$PMRRV3417403
$GPGGA,201359,4741.6666,N,12230.9502,W,1,04,0.9,00484.0,M,0.0,M,,*63
$PMRRV3417403
$PMRRV3417403
$PMRRV3417403
$GPRMC,201400,A,4741.6595,N,12230.9796,W,076.0,250.0,020420,015.3,E*6C
$GPGGA,201400,4741.6595,N,12230.9796,W,1,04,0.9,00484.9,M,0.0,M,,*61
$PMRRV3417403
$PMRRV3417403
$PMRRV3417403
$GPGLL,4741.65,N,12231.01,W,,A*3F
$GPVTG,251.3,T,,,75.0,N,138.9,K*19
$PMRRV3417403
$GPRMC,201401,A,4741.6523,N,12231.0082,W,076.0,250.0,020420,015.3,E*6A
$GPGGA,201401,4741.6523,N,12231.0082,W,1,04,0.9,00485.9,M,0.0,M,,*66
$PMRRV3417403
$PMRRV3417403
$PMRRV3417403
$PMRRV3417403
$PMRRV3417403
$PMRRV3417403
$GPRMC,201403,A,4741.6380,N,12231.0670,W,076.0,249.0,020420,015.3,E*64
$PMRRV3417403
$PMRRV3417403
$PMRRV3417403
$GPVTG,249.3,T,,,77.6,N,143.7,K*16
$PMRRV3417403
$PMRRV3417403
$GPRMB,A,6.15,R,WP001,8W5,4739.38,N,12243.99,W,009.0,255.5,077.0,V*5E
$GPRMC,201404,A,4741.6305,N,12231.0968,W,076.0,249.0,020420,015.3,E*68
$PMRRV3417403
$GPGLL,4741.62,N,12231.13,W,,A*3B
$GPVTG,249.3,T,,,77.5,N,143.6,K*14
$GPGGA,201404,4741.6305,N,12231.0968,W,1,04,0.9,00484.0,M,0.0,M,,*64
$GPRMB,A,6.15,R,WP001,8W5,4739.38,N,12243.99,W,009.0,255.5,076.0,V*5F
$PMRRV3417403
$GPRMC,201405,A,4741.6230,N,12231.1269,W,077.0,249.0,020420,015.3,E*64
$PMRRV3417403
$GPGLL,4741.61,N,12231.16,W,,A*3D
$GPVTG,249.0,T,,,78.1,N,144.7,K*1A
$PMRRV3417403
$GPRMC,201406,A,4741.6154,N,12231.1570,W,078.0,249.0,020420,015.3,E*66
$PMRRV3417403
$PMRRV3417403
$PMRRV3417403
$PMRRV3417403
$GPGGA,201407,4741.6077,N,12231.1872,W,1,04,0.9,00483.1,M,0.0,M,,*6C
$PMRRV3417403
$PMRRV3417403
$PMRRV3417403
$GPRMC,201408,A,4741.5997,N,12231.2170,W,078.0,248.0,020420,015.3,E*6A
$GPGGA,201408,4741.5997,N,12231.2170,W,1,04,0.9,00483.1,M,0.0,M,,*6F
$PMRRV3417403
$PMRRV3417403
$GPVTG,248.1,T,,,78.0,N,144.5,K*19
$PMRRV3417403
$GPRMC,201409,A,4741.5917,N,12231.2469,W,078.0,248.0,020420,015.3,E*6E
$PMRRV3417403
$PMRRV3417403
$GPVTG,248.4,T,,,78.3,N,144.9,K*13
$PMRRV3417403
$GPGGA,201410,4741.5836,N,12231.2772,W,1,04,0.9,00484.9,M,0.0,M,,*67
$PMRRV3417403
$PMRRV3417403
$PMRRV3417403
$GPRMB,A,6.06,R,WP001,8W5,4739.38,N,12243.99,W,008.8,255.6,077.0,V*56
$PMRRV3417403
$GPGLL,4741.57,N,12231.32,W,,A*3E
$GPRMC,201411,A,4741.5754,N,12231.3074,W,079.0,248.0,020420,015.3,E*66
$PMRRV3417403
$PMRRV3417403
$PMRRV3417403
$PMRRV3417403
$GPGLL,4741.57,N,12231.35,W,,A*39
$GPRMB,A,6.05,R,WP001,8W5,4739.38,N,12243.99,W,008.8,255.7,077.0,V*54
$GPVTG,248.2,T,,,78.9,N,146.1,K*15
$PMRRV3417403
$GPRMC,201412,A,4741.5673,N,12231.3372,W,079.0,248.0,020420,015.3,E*64
$PMRRV3417403
$PMRRV3417403
$PMRRV3417403
$GPVTG,247.9,T,,,78.8,N,146.0,K*11
$GPRMB,A,6.03,R,WP001,8W5,4739.38,N,12243.99,W,008.8,255.7,078.0,V*5D
$PMRRV3417403
$PMRRV3417403
$PMRRV3417403
$PMRRV3417403
$GPGLL,4741.55,N,12231.41,W,,A*38
$GPVTG,247.4,T,,,79.5,N,147.3,K*12
$GPRMB,A,6.02,R,WP001,8W5,4739.38,N,12243.99,W,008.7,255.7,078.0,V*53
$PMRRV3417403
$GPGGA,201413,4741.5503,N,12231.3975,W,1,04,0.9,00490.1,M,0.0,M,,*6A
$PMRRV3417403
$GPGLL,4741.54,N,12231.44,W,,A*3C
$GPVTG,246.4,T,,,80.3,N,148.6,K*19
$PMRRV3417403
$PMRRV3417403
$PMRRV3417403
$GPVTG,245.3,T,,,81.2,N,150.3,K*11
$PMRRV3417403
$GPGGA,201416,4741.5320,N,12231.4575,W,1,04,0.9,00492.9,M,0.0,M,,*69
$PMRRV3417403
$PMRRV3417403
$PMRRV3417403
$PMRRV3417403
$PMRRV3417403
$PMRRV3417403
$GPGLL,4741.51,N,12231.53,W,,A*3F
$GPVTG,244.1,T,,,83.1,N,153.9,K*1A
$PMRRV3417403
$GPRMB,A,5.98,R,WP001,8W5,4739.38,N,12243.99,W,008.7,255.8,079.0,V*5D
$GPRMC,201418,A,4741.5123,N,12231.5176,W,082.0,244.0,020420,015.3,E*64
$PMRRV3417403
$PMRRV3417403
$PMRRV3417403
$PMRRV3417403
$GPGLL,4741.50,N,12231.56,W,,A*3B
$GPVTG,245.6,T,,,85.0,N,157.5,K*13
$GPRMB,A,5.96,R,WP001,8W5,4739.38,N,12243.99,W,008.6,255.9,079.0,V*53
$PMRRV3417403
$PMRRV3417403
$GPGGA,201419,4741.5015,N,12231.5482,W,1,04,0.9,00498.0,M,0.0,M,,*68
$PMRRV3417403
$PMRRV3417403
$GPGLL,4741.49,N,12231.59,W,,A*3C
$GPVTG,241.4,T,,,83.4,N,154.4,K*15
$PMRRV3417403
$PMRRV3417403
$GPGGA,201420,4741.4901,N,12231.5783,W,1,04,0.9,00498.0,M,0.0,M,,*6D
$PMRRV3417403
$PMRRV3417403
$PMRRV3417403
$PMRRV3417403
$PMRRV3417403
$GPVTG,234.2,T,,,84.7,N,156.9,K*1A
$PMRRV3417403
$PMRRV3417403
$PMRRV3417403
$GPRMC,201422,A,4741.4777,N,12231.6077,W,084.0,236.0,020420,015.3,E*6B
$GPGGA,201422,4741.4777,N,12231.6077,W,1,04,0.9,00497.1,M,0.0,M,,*61
$PMRRV3417403
$GPRMB,A,5.93,R,WP001,8W5,4739.38,N,12243.99,W,008.5,256.1,079.0,V*5E
$PMRRV3417403
$GPGLL,4741.43,N,12231.70,W,,A*3D
$GPVTG,228.9,T,,,85.2,N,157.8,K*18
$GPRMC,201423,A,4741.4314,N,12231.6854,W,085.0,223.0,020420,015.3,E*67
$PMRRV3417403
$GPGGA,201423,4741.4314,N,12231.6854,W,1,04,0.9,00495.0,M,0.0,M,,*6B
$PMRRV3417403
$PMRRV3417403
$GPRMB,A,5.93,R,WP001,8W5,4739.38,N,12243.99,W,008.5,256.1,078.0,V*5F
$PMRRV3417403
$PMRRV3417403
$PMRRV3417403
$GPRMB,A,5.93,R,WP001,8W5,4739.38,N,12243.99,W,008.5,256.3,076.0,V*53
$GPRMC,201425,A,4741.4124,N,12231.7067,W,085.0,216.0,020420,015.3,E*6F
$PMRRV3417403
$GPGLL,4741.40,N,12231.75,W,,A*3B
$GPVTG,225.5,T,,,82.8,N,153.3,K*1B
$GPRMB,A,5.93,R,WP001,8W5,4739.38,N,12243.99,W,008.5,256.4,074.0,V*56
$PMRRV3417403
$GPRMC,201426,A,4741.3919,N,12231.7251,W,085.0,211.0,020420,015.3,E*6D
$PMRRV3417403
$PMRRV3417403
$PMRRV3417403
$GPRMB,A,5.93,R,WP001,8W5,4739.38,N,12243.99,W,008.5,256.5,069.0,V*5B
$PMRRV3417403
$PMRRV3417403
$GPVTG,200.6,T,,,84.9,N,157.2,K*1D
$GPGGA,201427,4741.3700,N,12231.7403,W,1,04,0.9,00495.9,M,0.0,M,,*6F
$PMRRV3417403
$PMRRV3417403
$GPRMC,201428,A,4741.3464,N,12231.7526,W,089.0,199.0,020420,015.3,E*6C
$GPVTG,195.9,T,,,89.5,N,165.8,K*17
$PMRRV3417403
$PMRRV3417403
$GPGGA,201428,4741.3464,N,12231.7526,W,1,04,0.9,00498.0,M,0.0,M,,*63
$PMRRV3417403
$PMRRV3417403
$GPVTG,193.3,T,,,90.4,N,167.4,K*1C
$GPRMB,A,5.95,R,WP001,8W5,4739.38,N,12243.99,W,008.5,256.8,062.0,V*5B
$GPRMC,201430,A,4741.3224,N,12231.7633,W,090.0,196.0,020420,015.3,E*67
$PMRRV3417403
$GPGGA,201430,4741.3224,N,12231.7633,W,1,04,0.9,00498.0,M,0.0,M,,*6F
$PMRRV3417403
$GPGLL,4741.28,N,12231.80,W,,A*3F
$PMRRV3417403
$GPRMC,201431,A,4741.2983,N,12231.7727,W,089.0,194.0,020420,015.3,E*6F
$PMRRV3417403
$GPGLL,4741.25,N,12231.80,W,,A*32
$GPVTG,192.3,T,,,90.2,N,167.0,K*1F
$PMRRV3417403
$PMRRV3417403
$GPGGA,201432,4741.2502,N,12231.7902,W,1,04,0.9,00506.0,M,0.0,M,,*64
$PMRRV3417403
$GPGLL,4741.23,N,12231.81,W,,A*35
$GPRMB,A,5.99,R,WP001,8W5,4739.38,N,12243.99,W,008.4,257.4,047.0,V*5C
$PMRRV3417403
$PMRRV3417403
$GPGGA,201433,4741.2266,N,12231.7987,W,1,04,0.9,00508.1,M,0.0,M,,*62
$PMRRV3417403
$GPGLL,4741.21,N,12231.82,W,,A*34
$PMRRV3417403
$GPRMB,A,6.00,R,WP001,8W5,4739.38,N,12243.99,W,008.4,257.5,045.0,V*5C
$GPRMC,201434,A,4741.2035,N,12231.8074,W,086.0,194.0,020420,015.3,E*6F
$PMRRV3417403
$PMRRV3417403
$GPGLL,4741.18,N,12231.83,W,,A*3F
$GPVTG,195.3,T,,,85.6,N,158.4,K*10
$PMRRV3417403
$GPRMC,201435,A,4741.1807,N,12231.8165,W,085.0,195.0,020420,015.3,E*67
$PMRRV3417403
$GPGGA,201435,4741.1807,N,12231.8165,W,1,04,0.9,00513.9,M,0.0,M,,*63
$PMRRV3417403
$PMRRV3417403
$PMRRV3417403
$GPVTG,196.0,T,,,84.6,N,156.6,K*1D
$PMRRV3417403
$PMRRV3417403
$PMRRV3417403
$GPRMC,201436,A,4741.1581,N,12231.8259,W,084.0,195.0,020420,015.3,E*6A
$PMRRV3417403
$GPGLL,4741.14,N,12231.84,W,,A*34
$GPVTG,197.3,T,,,83.3,N,154.3,K*1A
$PMRRV3417403
$GPRMB,A,6.03,R,WP001,8W5,4739.38,N,12243.99,W,008.4,257.9,040.0,V*56
$PMRRV3417403
$PMRRV3417403
$PMRRV3417403
$PMRRV3417403
$GPRMC,201438,A,4741.1141,N,12231.8463,W,082.0,198.0,020420,015.3,E*68
$PMRRV3417403
$PMRRV3417403
$GPVTG,199.6,T,,,81.4,N,150.7,K*14
$PMRRV3417403
$GPRMB,A,6.04,R,WP001,8W5,4739.38,N,12243.99,W,008.3,258.3,039.0,V*5D
$PMRRV3417403
$PMRRV3417403
$GPGLL,4741.07,N,12231.88,W,,A*3A
$PMRRV3417403
$PMRRV3417403
$GPGLL,4741.05,N,12231.89,W,,A*39
$GPVTG,202.9,T,,,80.6,N,149.3,K*15
$PMRRV3417403
$PMRRV3417403
$PMRRV3417403
$PMRRV3417403
$GPGGA,201442,4741.0317,N,12231.8950,W,1,04,0.9,00527.9,M,0.0,M,,*61
$PMRRV3417403
$PMRRV3417403
$GPGLL,4741.01,N,12231.92,W,,A*37
$GPVTG,208.2,T,,,80.0,N,148.2,K*12
$PMRRV3417403
$GPRMB,A,6.06,R,WP001,8W5,4739.38,N,12243.99,W,008.3,258.7,042.0,V*57
$GPRMC,201443,A,4741.0122,N,12231.9099,W,079.0,208.0,020420,015.3,E*6E
$PMRRV3417403
$PMRRV3417403
$PMRRV3417403
$GPGLL,4740.99,N,12231.93,W,,A*36
$GPVTG,211.4,T,,,79.6,N,147.5,K*14
$PMRRV3417403
$PMRRV3417403
$GPRMC,201444,A,4740.9936,N,12231.9261,W,079.0,211.0,020420,015.3,E*61
$PMRRV3417403
$GPGGA,201444,4740.9936,N,12231.9261,W,1,04,0.9,00531.9,M,0.0,M,,*69
$PMRRV3417403
$PMRRV3417403
$GPRMC,201445,A,4740.9758,N,12231.9435,W,078.0,213.0,020420,015.3,E*62
$PMRRV3417403
$PMRRV3417403
$PMRRV3417403
$GPRMB,A,6.07,R,WP001,8W5,4739.38,N,12243.99,W,008.2,259.1,047.0,V*55
$PMRRV3417403
$PMRRV3417403
$PMRRV3417403
$GPVTG,220.6,T,,,78.5,N,145.3,K*12
$PMRRV3417403
$GPRMB,A,6.07,R,WP001,8W5,4739.38,N,12243.99,W,008.2,259.1,049.0,V*5B
$GPRMC,201447,A,4740.9418,N,12231.9821,W,077.0,219.0,020420,015.3,E*6B
$PMRRV3417403
$PMRRV3417403
$PMRRV3417403
$GPGLL,4740.92,N,12232.01,W,,A*35
$GPVTG,223.0,T,,,79.3,N,146.8,K*18
$GPRMB,A,6.06,R,WP001,8W5,4739.38,N,12243.99,W,008.2,259.3,051.0,V*51
$GPGGA,201448,4740.9260,N,12232.0035,W,1,04,0.9,00537.1,M,0.0,M,,*6A
$PMRRV3417403
$PMRRV3417403
$PMRRV3417403
$GPGLL,4740.91,N,12232.03,W,,A*34
$GPVTG,225.8,T,,,80.4,N,149.0,K*10
$GPRMB,A,6.06,R,WP001,8W5,4739.38,N,12243.99,W,008.2,259.3,056.0,V*56
$PMRRV3417403
$PMRRV3417403
$PMRRV3417403
$PMRRV3417403
$PMRRV3417403
$GPGLL,4740.89,N,12232.06,W,,A*38
$GPVTG,228.3,T,,,79.9,N,148.0,K*1C
$GPRMC,201449,A,4740.8966,N,12232.0505,W,079.0,229.0,020420,015.3,E*6C
$PMRRV3417403
$PMRRV3417403
$GPGLL,4740.88,N,12232.08,W,,A*37
$GPVTG,231.9,T,,,80.5,N,149.2,K*17
$PMRRV3417403
$GPRMB,A,6.05,R,WP001,8W5,4739.38,N,12243.99,W,008.2,259.4,060.0,V*57
$PMRRV3417403
$GPRMC,201451,A,4740.8830,N,12232.0762,W,080.0,232.0,020420,015.3,E*68
$GPGGA,201451,4740.8830,N,12232.0762,W,1,04,0.9,00541.0,M,0.0,M,,*69
$PMRRV3417403
$GPGLL,4740.87,N,12232.11,W,,A*30
$GPVTG,234.3,T,,,81.8,N,151.5,K*1A
$PMRRV3417403
$GPRMB,A,6.04,R,WP001,8W5,4739.38,N,12243.99,W,008.1,259.5,065.0,V*51
$PMRRV3417403
$PMRRV3417403
$GPGGA,201452,4740.8701,N,12232.1036,W,1,04,0.9,00541.9,M,0.0,M,,*69
$PMRRV3417403
$PMRRV3417403
$GPGLL,4740.85,N,12232.14,W,,A*37
$GPVTG,237.2,T,,,82.7,N,153.2,K*11
$GPRMB,A,6.03,R,WP001,8W5,4739.38,N,12243.99,W,008.1,259.6,067.0,V*57
$PMRRV3417403
$GPRMC,201453,A,4740.8586,N,12232.1322,W,082.0,239.0,020420,015.3,E*62
$PMRRV3417403
$PMRRV3417403
$PMRRV3417403
$GPGLL,4740.84,N,12232.17,W,,A*35
$GPVTG,239.8,T,,,83.6,N,154.8,K*18
$GPRMB,A,6.02,R,WP001,8W5,4739.38,N,12243.99,W,008.1,259.6,071.0,V*51
$PMRRV3417403
$GPGGA,201454,4740.8478,N,12232.1624,W,1,04,0.9,00541.0,M,0.0,M,,*6E
$PMRRV3417403
$PMRRV3417403
$GPGGA,201455,4740.8382,N,12232.1936,W,1,04,0.9,00541.0,M,0.0,M,,*61
$PMRRV3417403
$PMRRV3417403
$PMRRV3417403
$PMRRV3417403
$GPGLL,4740.82,N,12232.23,W,,A*34
$GPRMB,A,5.99,R,WP001,8W5,4739.38,N,12243.99,W,008.1,259.7,075.0,V*55
$GPRMC,201456,A,4740.8298,N,12232.2261,W,085.0,249.0,020420,015.3,E*6A
$GPGGA,201456,4740.8298,N,12232.2261,W,1,04,0.9,00540.1,M,0.0,M,,*62
$PMRRV3417403
$PMRRV3417403
$PMRRV3417403
$GPGLL,4740.82,N,12232.27,W,,A*30
$GPVTG,254.3,T,,,88.7,N,164.3,K*1A
$GPRMB,A,5.98,R,WP001,8W5,4739.38,N,12243.99,W,008.0,259.7,077.0,V*57
$PMRRV3417403
$GPGGA,201457,4740.8231,N,12232.2590,W,1,04,0.9,00538.9,M,0.0,M,,*6E
$PMRRV3417403
$PMRRV3417403
$GPGLL,4740.81,N,12232.30,W,,A*35
$GPRMB,A,5.96,R,WP001,8W5,4739.38,N,12243.99,W,008.0,259.7,080.0,V*51
$PMRRV3417403
$PMRRV3417403
$PMRRV3417403
$PMRRV3417403
$GPGLL,4740.81,N,12232.34,W,,A*31
$GPVTG,261.2,T,,,90.7,N,168.0,K*1B
$PMRRV3417403
$GPRMB,A,5.94,R,WP001,8W5,4739.38,N,12243.99,W,008.0,259.7,082.0,V*51
$PMRRV3417403
$GPGLL,4740.81,N,12232.37,W,,A*32
$GPVTG,264.6,T,,,91.2,N,169.0,K*1F
$GPRMC,201459,A,4740.8142,N,12232.3277,W,087.0,261.0,020420,015.3,E*6F
$GPGGA,201459,4740.8142,N,12232.3277,W,1,04,0.9,00538.9,M,0.0,M,,*68
$PMRRV3417403
$PMRRV3417403
$PMRRV3417403
$PMRRV3417403
$GPRMB,A,5.92,R,WP001,8W5,4739.38,N,12243.99,W,008.0,259.7,083.0,V*56
$GPRMC,201500,A,4740.8125,N,12232.3631,W,086.0,265.0,020420,015.3,E*60
$PMRRV3417403
$GPGLL,4740.81,N,12232.41,W,,A*33
$GPVTG,268.3,T,,,91.2,N,169.0,K*16
$PMRRV3417403
$PMRRV3417403
$PMRRV3417403
$PMRRV3417403
$GPRMB,A,5.90,R,WP001,8W5,4739.38,N,12243.99,W,007.9,259.7,084.0,V*55
$GPRMC,201501,A,4740.8126,N,12232.3996,W,088.0,269.0,020420,015.3,E*62
$PMRRV3417403
$GPGLL,4740.81,N,12232.45,W,,A*37
$GPVTG,273.4,T,,,89.7,N,166.2,K*1A
$GPGGA,201501,4740.8126,N,12232.3996,W,1,04,0.9,00538.9,M,0.0,M,,*62
$PMRRV3417403
$PMRRV3417403
$PMRRV3417403
$GPRMB,A,5.88,R,WP001,8W5,4739.38,N,12243.99,W,007.9,259.6,084.0,V*5D
$PMRRV3417403
$GPRMC,201502,A,4740.8142,N,12232.4356,W,087.0,273.0,020420,015.3,E*66
$PMRRV3417403
$PMRRV3417403
$GPRMC,201503,A,4740.8169,N,12232.4717,W,089.0,276.0,020420,015.3,E*64
$GPGGA,201503,4740.8169,N,12232.4717,W,1,04,0.9,00541.0,M,0.0,M,,*6C
$PMRRV3417403
$GPGLL,4740.82,N,12232.52,W,,A*32
$GPVTG,277.7,T,,,91.0,N,168.6,K*19
$PMRRV3417403
$PMRRV3417403
$GPRMC,201504,A,4740.8203,N,12232.5083,W,090.0,277.0,020420,015.3,E*6E
$PMRRV3417403
$GPGGA,201504,4740.8203,N,12232.5083,W,1,04,0.9,00541.9,M,0.0,M,,*66
$PMRRV3417403
$GPGLL,4740.82,N,12232.56,W,,A*36
$GPVTG,277.0,T,,,91.8,N,170.1,K*18
$PMRRV3417403
$PMRRV3417403
$PMRRV3417403
$PMRRV3417403
$PMRRV3417403
$GPGLL,4740.83,N,12232.60,W,,A*32
$PMRRV3417403
$PMRRV3417403
$GPRMC,201505,A,4740.8236,N,12232.5453,W,091.0,277.0,020420,015.3,E*61
$GPRMB,A,5.79,R,WP001,8W5,4739.38,N,12243.99,W,007.8,259.4,086.0,V*52
$PMRRV3417403
$GPGLL,4740.83,N,12232.63,W,,A*31
$GPRMC,201506,A,4740.8268,N,12232.5831,W,092.0,276.0,020420,015.3,E*63
$PMRRV3417403
$GPGGA,201506,4740.8268,N,12232.5831,W,1,04,0.9,00544.1,M,0.0,M,,*65
$GPRMB,A,5.76,R,WP001,8W5,4739.38,N,12243.99,W,007.8,259.4,087.0,V*5C
$PMRRV3417403
$GPGLL,4740.83,N,12232.67,W,,A*35
$GPVTG,275.3,T,,,92.4,N,171.1,K*17
$PMRRV3417403
$PMRRV3417403
$GPRMB,A,5.74,R,WP001,8W5,4739.38,N,12243.99,W,007.8,259.3,087.0,V*59
$GPRMC,201508,A,4740.8317,N,12232.6590,W,092.0,274.0,020420,015.3,E*63
$PMRRV3417403
$GPVTG,275.4,T,,,93.2,N,172.6,K*13
$PMRRV3417403
$PMRRV3417403
$PMRRV3417403
$GPRMB,A,5.71,R,WP001,8W5,4739.38,N,12243.99,W,007.7,259.3,088.0,V*5C
$PMRRV3417403
$GPRMC,201509,A,4740.8340,N,12232.6971,W,093.0,275.0,020420,015.3,E*63
$PMRRV3417403
$GPGLL,4740.84,N,12232.75,W,,A*31
$PMRRV3417403
$PMRRV3417403
$GPRMB,A,5.69,R,WP001,8W5,4739.38,N,12243.99,W,007.7,259.2,088.0,V*54
$PMRRV3417403
$GPRMC,201510,A,4740.8366,N,12232.7351,W,093.0,275.0,020420,015.3,E*66
$GPGGA,201510,4740.8366,N,12232.7351,W,1,04,0.9,00556.0,M,0.0,M,,*60
$PMRRV3417403
$GPVTG,277.1,T,,,92.2,N,170.8,K*19
$PMRRV3417403
$PMRRV3417403
$PMRRV3417403
$GPRMC,201511,A,4740.8396,N,12232.7729,W,094.0,276.0,020420,015.3,E*67
$GPGGA,201511,4740.8396,N,12232.7729,W,1,04,0.9,00559.0,M,0.0,M,,*6A
$PMRRV3417403
$PMRRV3417403
$GPRMB,A,5.64,R,WP001,8W5,4739.38,N,12243.99,W,007.7,259.1,089.0,V*5B
$GPRMC,201512,A,4740.8420,N,12232.8107,W,093.0,274.0,020420,015.3,E*6E
$GPGGA,201512,4740.8420,N,12232.8107,W,1,04,0.9,00561.1,M,0.0,M,,*6C
$PMRRV3417403
$GPGLL,4740.85,N,12232.86,W,,A*3C
$GPVTG,274.7,T,,,92.4,N,171.0,K*13
$PMRRV3417403
$PMRRV3417403
$GPRMC,201513,A,4740.8441,N,12232.8485,W,092.0,274.0,020420,015.3,E*66
$GPGGA,201513,4740.8441,N,12232.8485,W,1,04,0.9,00563.0,M,0.0,M,,*66
$PMRRV3417403
$PMRRV3417403
$PMRRV3417403
$PMRRV3417403
$GPGLL,4740.85,N,12232.94,W,,A*3F
$GPVTG,274.0,T,,,92.3,N,170.9,K*1B
$PMRRV3417403
$PMRRV3417403
$PMRRV3417403
$GPGGA,201514,4740.8460,N,12232.8861,W,1,04,0.9,00565.1,M,0.0,M,,*63
$GPRMB,A,5.57,R,WP001,8W5,4739.38,N,12243.99,W,007.6,258.9,089.0,V*53
$PMRRV3417403
$GPGLL,4740.85,N,12232.98,W,,A*33
$GPVTG,274.6,T,,,93.0,N,172.3,K*17
$GPRMC,201516,A,4740.8479,N,12232.9233,W,091.0,274.0,020420,015.3,E*61
$PMRRV3417403
$PMRRV3417403
$PMRRV3417403
$PMRRV3417403
$GPVTG,274.0,T,,,91.4,N,169.4,K*1A
$GPRMB,A,5.53,R,WP001,8W5,4739.38,N,12243.99,W,007.5,258.8,089.0,V*55
$GPRMC,201517,A,4740.8514,N,12232.9977,W,091.0,274.0,020420,015.3,E*61
$GPGGA,201517,4740.8514,N,12232.9977,W,1,04,0.9,00570.9,M,0.0,M,,*69
$PMRRV3417403
$PMRRV3417403
$GPGLL,4740.86,N,12233.05,W,,A*35
$GPVTG,274.2,T,,,91.1,N,168.8,K*10
$GPRMB,A,5.50,R,WP001,8W5,4739.38,N,12243.99,W,007.5,258.8,089.0,V*56
$GPRMC,201518,A,4740.8531,N,12233.0345,W,089.0,273.0,020420,015.3,E*64
$PMRRV3417403
$PMRRV3417403
$GPRMB,A,5.48,R,WP001,8W5,4739.38,N,12243.99,W,007.5,258.8,088.0,V*5E
$GPVTG,274.5,T,,,91.4,N,169.2,K*19
$GPRMC,201519,A,4740.8550,N,12233.0714,W,090.0,274.0,020420,015.3,E*6D
$PMRRV3417403
$GPGGA,201519,4740.8550,N,12233.0714,W,1,04,0.9,00573.9,M,0.0,M,,*67
$PMRRV3417403
$PMRRV3417403
$GPRMB,A,5.46,R,WP001,8W5,4739.38,N,12243.99,W,007.5,258.7,088.0,V*5F
$PMRRV3417403
$PMRRV3417403
$PMRRV3417403
$GPRMB,A,5.44,R,WP001,8W5,4739.38,N,12243.99,W,007.4,258.6,088.0,V*5D
$PMRRV3417403
$GPRMC,201521,A,4740.8589,N,12233.1442,W,088.0,274.0,020420,015.3,E*6A
$GPGGA,201521,4740.8589,N,12233.1442,W,1,04,0.9,00574.9,M,0.0,M,,*6E
$PMRRV3417403
$PMRRV3417403
$GPRMB,A,5.41,R,WP001,8W5,4739.38,N,12243.99,W,007.4,258.6,087.0,V*57
$PMRRV3417403
$GPGLL,4740.86,N,12233.20,W,,A*32
$GPVTG,276.1,T,,,88.5,N,164.0,K*19
$GPRMC,201522,A,4740.8614,N,12233.1807,W,088.0,276.0,020420,015.3,E*61
$GPGGA,201522,4740.8614,N,12233.1807,W,1,04,0.9,00574.9,M,0.0,M,,*67
$PMRRV3417403
$PMRRV3417403
$PMRRV3417403
$PMRRV3417403
$GPGLL,4740.87,N,12233.23,W,,A*30
$GPRMB,A,5.39,R,WP001,8W5,4739.38,N,12243.99,W,007.4,258.5,086.0,V*5A
$PMRRV3417403
$GPGGA,201523,4740.8641,N,12233.2164,W,1,04,0.9,00576.1,M,0.0,M,,*63
$PMRRV3417403
$GPVTG,277.2,T,,,86.9,N,160.9,K*14
$GPRMB,A,5.37,R,WP001,8W5,4739.38,N,12243.99,W,007.4,258.4,085.0,V*56
$PMRRV3417403
$GPVTG,277.7,T,,,87.8,N,162.6,K*1C
$GPRMC,201524,A,4740.8671,N,12233.2520,W,087.0,277.0,020420,015.3,E*61
$PMRRV3417403
$GPGGA,201524,4740.8671,N,12233.2520,W,1,04,0.9,00577.0,M,0.0,M,,*63
$PMRRV3417403
$PMRRV3417403
$PMRRV3417403
$GPRMB,A,5.34,R,WP001,8W5,4739.38,N,12243.99,W,007.4,258.4,084.0,V*54
$GPRMC,201525,A,4740.8703,N,12233.2877,W,087.0,277.0,020420,015.3,E*6B
$PMRRV3417403
$GPGLL,4740.88,N,12233.34,W,,A*39
$GPGGA,201525,4740.8703,N,12233.2877,W,1,04,0.9,00579.1,M,0.0,M,,*66
$PMRRV3417403
$PMRRV3417403
$GPRMB,A,5.32,R,WP001,8W5,4739.38,N,12243.99,W,007.3,258.3,084.0,V*52
$PMRRV3417403
$GPGLL,4740.88,N,12233.37,W,,A*3A
$GPVTG,276.7,T,,,88.0,N,163.0,K*1D
$GPRMC,201526,A,4740.8732,N,12233.3228,W,087.0,276.0,020420,015.3,E*6A
$GPGGA,201526,4740.8732,N,12233.3228,W,1,04,0.9,00580.0,M,0.0,M,,*61
$PMRRV3417403
$PMRRV3417403
$PMRRV3417403
$GPRMB,A,5.30,R,WP001,8W5,4739.38,N,12243.99,W,007.3,258.3,083.0,V*57
$PMRRV3417403
$GPRMC,201527,A,4740.8757,N,12233.3579,W,086.0,275.0,020420,015.3,E*69
$PMRRV3417403
$PMRRV3417403
$GPRMB,A,5.28,R,WP001,8W5,4739.38,N,12243.99,W,007.3,258.2,083.0,V*5F
$PMRRV3417403
$GPRMC,201528,A,4740.8774,N,12233.3933,W,086.0,274.0,020420,015.3,E*64
$GPGGA,201528,4740.8774,N,12233.3933,W,1,04,0.9,00580.0,M,0.0,M,,*6C
$PMRRV3417403
$GPGLL,4740.88,N,12233.44,W,,A*3E
$PMRRV3417403
